Number,station,location,latitude,longitude,owner,Price_U91,Price_P98
32,"2 Lugard St, PENRITH NSW 2750","Lugard Street, Penrith, Sydney, Penrith City Council, New South Wales, 2750, Australia",-33.7343578,150.6912697,Caltex,136.4,161.4
78,"236 Condamine Street, MANLY VALE NSW 2093","Caltex Manly Vale, 236-238, Condamine Street, Manly Vale, Sydney, Northern Beaches Council, Northern Beaches, New South Wales, 2093, Australia",-33.7851099,151.2673003,Caltex,Not Selling U91    ,Not Selling P98
79,"641 King Georges Rd, PENSHURST NSW 2222","King Georges Road, Penshurst, Sydney, Georges River Council, St George, New South Wales, 2222, Australia",-33.9635286,151.0926271,Caltex,Not Selling U91    ,159.7
86,"218 King Georges Road, Roselands NSW 2196","218, King Georges Road, Roselands, Sydney, Canterbury-Bankstown Council, New South Wales, 2196, Australia",-33.93310735,151.0735234,Caltex,Not Selling U91    ,152.4
110,"11 Macquarie Street, Windsor NSW 2756","Macquarie Street, Windsor, Sydney, Hawkesbury City Council, New South Wales, 2756, Australia",-33.6054609,150.8241958,Caltex,141.9,161.9
127,"862 Hume Highway, Bass Hill NSW 2197","Hume Highway, Bass Hill, Sydney, Canterbury-Bankstown Council, New South Wales, 2197, Australia",-33.8990338,150.9964063,Caltex,131.9,151.9
169,"770 Richmond Road, Berkshire Park NSW 2765","Richmond Road, Berkshire Park, Sydney, Penrith City Council, New South Wales, 2765, Australia",-33.6706472,150.8056867,Caltex,140.4,160.4
188,"1-3 CHURCH ST, PORT KEMBLA NSW 2505","Church Street, Port Kembla, Wollongong City Council, New South Wales, 2505, Australia",-34.4849082,150.9039099,Caltex,127.9,Not Selling P98
200,"12-14 Bolwarra Rd, PORT MACQUARIE NSW 2444","Bolwarra Road, Port Macquarie, Port Macquarie-Hastings Council, New South Wales, 2444, Australia",-31.4500168,152.8860802,Caltex,137,Not Selling P98
219,"67 Orange Grove Road, Liverpool NSW 2170","Orange Grove Road, Liverpool, Sydney, Liverpool City Council, New South Wales, 2170, Australia",-33.9152648,150.9208069,Caltex,129.9,149.9
220,"147 Newbridge Rd, CHIPPING NORTON NSW 2170","Newbridge Road, Chipping Norton, Sydney, Liverpool City Council, New South Wales, 2170, Australia",-33.929447,150.9794834,Caltex,135.9,155.9
221,"390 Princes Highway, Blakehurst NSW 2221","Woolworths Petrol, 390, Princes Highway, Blakehurst, Sydney, Georges River Council, St George, New South Wales, 2221, Australia",-33.9903586,151.1136284,Caltex,134.5,154.5
235,"87-91 ROBERTS RD, GREENACRE NSW 2190","Roberts Road, Greenacre, Sydney, Canterbury-Bankstown Council, New South Wales, 2190, Australia",-33.9019184,151.0647214,Caltex,Not Selling U91    ,156.9
237,"19 The Northern Rd, Luddenham NSW 2745","Caltex, 19, The Northern Road, Luddenham, Sydney, Penrith City Council, New South Wales, 2745, Australia",-33.87541245,150.6892916,Caltex,135.9,160.9
238,"1233 Pacific Highway, Turramurra NSW 2074","Woolworths/Caltex Service Station, 1233, Pacific Highway, Turramurra, Sydney, Ku-ring-gai Council, Upper North Shore, New South Wales, 2074, Australia",-33.73314105,151.1313878,Caltex,Not Selling U91    ,Not Selling P98
240,"33 VILLAGE CCT, GREGORY HILLS NSW 2557","Village Circuit, Gregory Hills, Sydney, Camden Council, New South Wales, 2557, Australia",-34.0229138,150.7754969,Caltex,Not Selling U91    ,Not Selling P98
245,"775 Princes Hwy, TEMPE NSW 2044","Princes Highway, Tempe, Sydney, Inner West Council, Inner West, New South Wales, 2044, Australia",-33.9279322,151.1579164,Caltex,138.9,163.9
251,"36 Great Western Highway, MOUNT VICTORIA NSW 2786","Great Western Highway, Mount Victoria, Blue Mountains City Council, New South Wales, 2786, Australia",-33.5952467,150.2634487,Caltex,Not Selling U91    ,170.4
283,"280-282 Canley Vale Road, CANLEY HEIGHTS NSW 2166","Canley Vale Road, Canley Heights, Sydney, Fairfield City Council, New South Wales, 2166, Australia",-33.8851957,150.9350755,Caltex,Not Selling U91    ,162.9
284,"1413-1415 Elizabeth Dr, KEMPS CREEK NSW 2178","Elizabeth Drive, Kemps Creek, Sydney, Liverpool City Council, New South Wales, 2178, Australia",-33.8807995,150.7991875,Caltex,130.9,Not Selling P98
298,"132 Old Bathurst Road, Emu Plains NSW 2750","Old Bathurst Road, Emu Plains, Penrith, Sydney, Penrith City Council, New South Wales, 2750, Australia",-33.7459364,150.6711105,Caltex,136.9,156.9
303,"281 Hawkesbury Rd, Winmalee NSW 2777","Hawkesbury Road, Winmalee, Sydney, Blue Mountains City Council, New South Wales, 2777, Australia",-33.6865977,150.5862036,Caltex,146.9,Not Selling P98
305,"742 Forest Road, Peakhurst NSW 2210","Forest Road, Peakhurst, Sydney, Georges River Council, St George, New South Wales, 2210, Australia",-33.9600908,151.0611464,Caltex,Not Selling U91    ,151.9
307,"574 Great Western Hwy, Werrington NSW 2747","Great Western Highway, Werrington, Sydney, Penrith City Council, New South Wales, 2747, Australia",-33.7659377,150.7484569,Caltex,134.7,154.7
316,"220 Wollombi Road, Cessnock NSW 2325","Wollombi Road, Wollombi, Cessnock City Council, New South Wales, 2325, Australia",-32.935174,151.1476962,Caltex,Not Selling U91    ,147.5
317,"97 Hume Highway, Chullora NSW 2190","Hume Highway, Chullora, Sydney, Canterbury-Bankstown Council, New South Wales, 2190, Australia",-33.8957599,151.0513634,Caltex,Not Selling U91    ,150.9
361,"387 New England Hwy, RUTHERFORD NSW 2320","New England Highway, Rutherford, Maitland City Council, New South Wales, 2320, Australia",-32.7069444,151.4997329,Caltex,159.9,180.9
362,"465 Pacific Hwy, WYOMING NSW 2250","Pacific Highway, Wyoming, Gosford, Central Coast Council, New South Wales, 2250, Australia",-33.4088703,151.3500149,Caltex,Not Selling U91    ,180.9
380,"3356 Putty Road, Colo Heights NSW 2756","Putty Road, Parrs Brush, Colo Heights, Hawkesbury City Council, New South Wales, 2756, Australia",-33.3995711,150.7621161,Caltex,139.9,160.9
384,"360 Flushcombe Road, Prospect NSW 2148","Flushcombe Road, Prospect, Sydney, Blacktown City Council, New South Wales, 2148, Australia",-33.795963,150.9045189,Caltex,132.9,152.9
385,"287 Liverpool Road, Burwood NSW 2134","Liverpool Road, Burwood, Sydney, Burwood Council, New South Wales, 2134, Australia",-33.8866879,151.1071139,Caltex,130.9,150.9
395,"505 Crown St, West Wollongong NSW 2500","Crown Street, West Wollongong, Wollongong City Council, New South Wales, 2500, Australia",-34.4259205,150.8758254,Caltex,136.5,161.9
411,"5558 Old Northern Road, WISEMANS FERRY NSW 2775","Old Northern Road, Wisemans Ferry, Sydney, The Council of the Shire of Hornsby, New South Wales, 2775, Australia",-33.38017,150.9880031,Caltex,146.9,169.9
432,"9 Bay Village Rd, BATEAU BAY NSW 2261","Bay Village Road, Bateau Bay, Central Coast Council, New South Wales, 2261, Australia",-33.3727499,151.4735906,Caltex,159.9,179.9
435,"900 Pacific Highway, LISAROW NSW 2250","Pacific Highway, Lisarow, Gosford, Central Coast Council, New South Wales, 2250, Australia",-33.383175,151.3689416,Caltex,159.9,179.9
442,"316 Camden Valley Way, Narellan NSW 2567","Camden Valley Way, Narellan, Sydney, Camden Council, New South Wales, 2567, Australia",-34.039367,150.7400246,Caltex,136.9,156.9
444,"609 Hovell St, SOUTH ALBURY NSW 2640","Hovell Street, South Albury, Albury, Albury City Council, New South Wales, 2640, Australia",-36.08768,146.9208347,Caltex,135.9,Not Selling P98
445,"603 Pacific Hwy, MOUNT COLAH NSW 2079","Caltex Ampol Service Station, 603, Pacific Highway, Mount Colah, Sydney, The Council of the Shire of Hornsby, New South Wales, 2079, Australia",-33.6703057,151.1151796,Caltex,Not Selling U91    ,164.9
447,"186 Pacific Highway, Tuggerah NSW 2259","Pacific Chinese Cuisine, 186, Pacific Highway, Tuggerah, Central Coast Council, New South Wales, 2259, Australia",-33.2942415,151.4222523,Caltex,159.9,179.9
448,"24-26 Gavenlock Road, Tuggerah NSW 2259","Gavenlock Road, Tuggerah, Central Coast Council, New South Wales, 2259, Australia",-33.3072254,151.4157761,Caltex,Not Selling U91    ,179.9
449,"300 New England Highway, Rutherford NSW 2320","New England Highway, Rutherford, Maitland City Council, New South Wales, 2320, Australia",-32.7069444,151.4997329,Caltex,Not Selling U91    ,179.9
461,"The Entrance, FORRESTERS BEACH NSW 2260","The Entrance Road, Forresters Beach, Central Coast Council, New South Wales, 2260, Australia",-33.4107407,151.4585421,Caltex,159.9,Not Selling P98
463,"2021 New England Hwy, Greta NSW 2334","New England Highway, Greta, Cessnock City Council, New South Wales, 2334, Australia",-32.6746674,151.3863139,Caltex,156.7,174.7
474,"84-86 Maitland St, MUSWELLBROOK NSW 2333","Maitland Street, Muswellbrook, Muswellbrook Shire Council, New South Wales, 2333, Australia",-32.269738,150.8882181,Caltex,Not Selling U91    ,Not Selling P98
494,"425 Crown Street, Wollongong West NSW 2500","Woolworths Petrol, 425, Crown Street, Wollongong, Wollongong City Council, New South Wales, 2500, Australia",-34.4262815,150.8797351,Caltex,136.4,Not Selling P98
495,"449 Captain Cook Drive, Woolooware NSW 2230","Captain Cook Drive, Woolooware, Sydney, Sutherland Shire Council, New South Wales, 2230, Australia",-34.0393513,151.1428075,Caltex,149.9,169.9
496,"48-50 Blaxland Road, Campbelltown NSW 2560","Blaxland Road, Campbelltown, Sydney, Campbelltown City Council, New South Wales, 2560, Australia",-34.0680348,150.8026496,Caltex,Not Selling U91    ,169.9
497,"261-265 Princes Highway, Bulli NSW 2516","Princes Highway, Bulli, Wollongong City Council, New South Wales, 2516, Australia",-34.3358066,150.9126831,Caltex,149.9,169.9
502,"3 Thomas Rose Drive, Rosemeadow NSW 2560","Thomas Rose Drive, Rosemeadow, Sydney, Campbelltown City Council, New South Wales, 2560, Australia",-34.1004447,150.7995977,Caltex,149.9,169.9
509,"12-14 Berowra Waters Rd, BEROWRA NSW 2081","Caltex, 12-14, Berowra Waters Road, Berowra, Sydney, The Council of the Shire of Hornsby, New South Wales, 2081, Australia",-33.62339465,151.1505486,Caltex,157.9,178.9
510,"200-202 Pennant Hills Road, THORNLEIGH NSW 2120","Pennant Hills Road, Thornleigh, Sydney, The Council of the Shire of Hornsby, New South Wales, 2120, Australia",-33.7325827,151.0782046,Caltex,157.9,178.9
511,"572 Pacific Hwy, Chatswood NSW 2067","Pacific Highway, Chatswood, Sydney, Willoughby City Council, Lower North Shore, New South Wales, 2067, Australia",-33.7959787,151.1781521,Caltex,149.9,171.9
516,"21 BARSDEN ST, CAMDEN NSW 2570","Barsden Street, Camden, Sydney, Camden Council, New South Wales, 2570, Australia",-34.0584192,150.6919291,Caltex,Not Selling U91    ,157.9
523,"153 Elizabeth Dr, Vincentia NSW 2540","Elizabeth Drive, Vincentia, Shoalhaven City Council, New South Wales, 2540, Australia",-35.0519046,150.6750514,Caltex,135.7,155.7
572,"109 GUNNEDAH RD, TAMINDA NSW 2340","Gunnedah Road, Taminda, Tamworth, Tamworth Regional Council, New South Wales, 2340, Australia",-31.0990317,150.899151,Caltex,Not Selling U91    ,Not Selling P98
582,"774 Parramatta Road, Lewisham NSW 2049","Parramatta Road, Lewisham, Sydney, Inner West Council, Inner West, New South Wales, 2049, Australia",-33.8901181,151.1476692,Caltex,145.9,165.9
586,"108W Fitzroy St, Walcha NSW 2354","Fitzroy Street, Walcha, Walcha Council, New South Wales, 2354, Australia",-30.9849173,151.5910984,Caltex,142.9,Not Selling P98
595,"400 Parramatta Road, Burwood NSW 2134","Parramatta Road, Burwood, Sydney, Burwood Council, New South Wales, 2134, Australia",-33.8688236,151.1046689,Caltex,145.9,165.9
618,"560-562 Victoria Road, ERMINGTON NSW 2115","Victoria Road, Ermington, Sydney, City of Parramatta Council, New South Wales, 2115, Australia",-33.813803,151.0523784,Caltex,126.9,147.9
620,"309 Victoria Rd, RYDALMERE NSW 2116","309, Victoria Road, Rydalmere, Sydney, City of Parramatta Council, New South Wales, 2116, Australia",-33.811962,151.037119,Caltex,151.9,172.9
624,"68 Harold St, MACQUARIE FIELDS NSW 2564","Harold Street, Macquarie Fields, Sydney, Campbelltown City Council, New South Wales, 2564, Australia",-33.9975964,150.8900495,Caltex,144.9,165.9
625,"334-336 Parramatta Rd, HOMEBUSH WEST NSW 2140","334-336, Parramatta Road, Homebush West, Sydney, Strathfield Municipal Council, New South Wales, 2140, Australia",-33.8581543,151.0681261,Caltex,149.9,170.9
626,"114 Taren Point Rd, TAREN POINT NSW 2229","Taren Point Road, Taren Point, Sydney, Sutherland Shire Council, New South Wales, 2229, Australia",-34.0264058,151.1203396,Caltex,149.9,170.9
643,"38 John St, The Oaks NSW 2570","38, John Street, The Oaks, Wollondilly Shire Council, New South Wales, 2570, Australia",-34.0801666,150.5704726,Caltex,139.9,Not Selling P98
666,"740-742 Pittwater Rd, BROOKVALE NSW 2100","Star Mart, 740-742, Pittwater Road, Brookvale, Sydney, Northern Beaches Council, Northern Beaches, New South Wales, 2100, Australia",-33.76148035,151.2743708,Caltex,148.9,Not Selling P98
669,"532 Old Northern Road, Dural NSW 2158","532, Old Northern Road, Round Corner, Dural, Sydney, The Hills Shire Council, Hills District, New South Wales, 2158, Australia",-33.6934847,151.0202716,Caltex,151.9,171.9
674,"153 Forest Way, Belrose NSW 2085","Forest Way, Belrose, Sydney, Northern Beaches Council, Northern Beaches, New South Wales, 2085, Australia",-33.740244,151.2202969,Caltex,Not Selling U91    ,170.9
683,"176 Warringah Rd, BEACON HILL NSW 2100","Caltex, 176, Warringah Road, Beacon Hill, Sydney, Northern Beaches Council, Northern Beaches, New South Wales, 2100, Australia",-33.7538434,151.2603475,Caltex,149.9,Not Selling P98
684,"475 Cleveland St, Redfern NSW 2016","Cleveland Street, Redfern, Sydney, Council of the City of Sydney, New South Wales, 2016, Australia",-33.8894692,151.2045522,Caltex,137.9,157.9
709,"133 Wyndham Street, ALEXANDRIA NSW 2015","Wyndham Street, Macdonaldtown, Alexandria, Sydney, Council of the City of Sydney, New South Wales, 2015, Australia",-33.896925,151.1982946,Caltex,139.9,164.9
719,"12-14 Norfolk Street, Ingleburn NSW 2565","Norfolk Street, Ingleburn, Sydney, Campbelltown City Council, New South Wales, 2565, Australia",-33.9991704,150.8634034,Caltex,144.9,164.9
731,"521 Carrington Road, LONDONDERRY NSW 2753","Carrington Road, Londonderry, Sydney, Penrith City Council, New South Wales, 2753, Australia",-33.6455071,150.7393514,Caltex,129.9,153.9
733,"154 Silverwater Rd, SILVERWATER NSW 2128","154, Silverwater Road, Silverwater, Sydney, City of Parramatta Council, New South Wales, 2128, Australia",-33.831671,151.048545,Caltex,128.9,148.9
737,"1141 Castlereagh Rd, Castlereagh NSW 2749","Castlereagh Road, Castlereagh, Sydney, Penrith City Council, New South Wales, 2749, Australia",-33.713405,150.6950022,Caltex,132.9,154.9
738,"1 Avenue of the Americas, Newington NSW 2127","Avenue of the Americas, Newington, Sydney, City of Parramatta Council, New South Wales, 2127, Australia",-33.8351017,151.0548724,Caltex,Not Selling U91    ,148.9
749,"276 Miller Road, Villawood NSW 2144","Miller Road, Villawood, Sydney, Canterbury-Bankstown Council, New South Wales, 2163, Australia",-33.8857301,150.9928045,Caltex,129.9,150.9
754,"1 DUNN RD, SMEATON GRANGE NSW 2567","Dunn Road, Smeaton Grange, Sydney, Camden Council, New South Wales, 2567, Australia",-34.0327845,150.7549063,Caltex,Not Selling U91    ,Not Selling P98
766,"797 Pennant Hills Road, CARLINGFORD NSW 2118","797-799, Pennant Hills Road, Mobbs Hill, Carlingford, Sydney, City of Parramatta Council, New South Wales, 2118, Australia",-33.7757819,151.0516532,Caltex,155.9,176.9
769,"131 Pennant Hills Rd, CARLINGFORD NSW 2118","Pennant Hills Road, Carlingford, Sydney, City of Parramatta Council, New South Wales, 2118, Australia",-33.7743611,151.0512318,Caltex,155.9,176.9
779,"431 The Entrance Rd, LONG JETTY NSW 2261","Caltex, 431-495, The Entrance Road, Long Jetty, Central Coast Council, New South Wales, 2261, Australia",-33.3600975,151.4828687,Caltex,159.9,180.9
785,"16-38 Military Rd, Neutral Bay NSW 2089","Military Road, Neutral Bay, Sydney, North Sydney Council, Lower North Shore, New South Wales, 2089, Australia",-33.8297198,151.2146364,Caltex,Not Selling U91    ,Not Selling P98
804,"50 Bells Line of Road, NORTH RICHMOND NSW 2754","Bells Line of Road, North Richmond, Sydney, Hawkesbury City Council, New South Wales, 2754, Australia",-33.5718933,150.7102082,Caltex,141.9,166.9
828,"1135 Pacific Highway, LAKE MUNMORAH NSW 2259","Pacific Highway, Lake Munmorah, Central Coast Council, New South Wales, 2259, Australia",-33.1879924,151.5562649,Caltex,159.9,180.9
829,"2893 Nelson Bay Rd, SALT ASH NSW 2318","Nelson Bay Road, Salt Ash, Port Stephens Council, New South Wales, 2318, Australia",-32.7925933,151.8976299,Caltex,155.9,176.9
830,"100 Bonnyrigg Avenue, Bonnyrigg NSW 2177","Bonnyrigg Avenue, Bonnyrigg, Sydney, Fairfield City Council, New South Wales, 2177, Australia",-33.8900507,150.8852957,Caltex,134.9,154.9
836,"277 Newtown Road, Bega NSW 2550","Newtown Road, Bega, Bega Valley Shire Council, New South Wales, 2550, Australia",-36.6894691,149.8394297,Caltex,144.9,Not Selling P98
842,"7 Lake Albert Road, EAST WAGGA WAGGA NSW 2650","Lake Albert Road, East Wagga Wagga, Wagga Wagga City Council, New South Wales, 2650, Australia",-35.1207514,147.3782318,Caltex,Not Selling U91    ,Not Selling P98
847,"1509-1511 Pittwater Road, NORTH NARRABEEN NSW 2101","Pittwater Road, Narrabeen, Sydney, Northern Beaches Council, Northern Beaches, New South Wales, 2101, Australia",-33.7119101,151.296933,Caltex,148.9,Not Selling P98
852,"12 Verner Street, GOULBURN NSW 2580","Verner Street, Goulburn, Goulburn Mulwaree Council, New South Wales, 2580, Australia",-34.7515674,149.7085752,Caltex,Not Selling U91    ,Not Selling P98
861,"1 High Street, BOMBALA NSW 2632","High Street, Bombala, Snowy Monaro Regional Council, New South Wales, 2632, Australia",-36.9070534,149.2379428,Caltex,Not Selling U91    ,Not Selling P98
864,"83 Mustang Dr, RUTHERFORD NSW 2320","Mustang Drive, Rutherford, Maitland City Council, New South Wales, 2320, Australia",-32.7059941,151.5029298,Caltex,Not Selling U91    ,Not Selling P98
867,"240 Prospect Highway, Seven Hills NSW 2147","Prospect Highway, Seven Hills, Sydney, Blacktown City Council, New South Wales, 2147, Australia",-33.7709352,150.9388942,Caltex,136.9,156.9
870,"111 James Street, Dunoon NSW 2480","James Street, Dunoon, Lismore City Council, New South Wales, 2480, Australia",-28.6898741,153.314017,Caltex,157.9,Not Selling P98
878,"19-25 MERIMBULA DR, MERIMBULA NSW 2548","Merimbula Drive, Merimbula, Bega Valley Shire Council, New South Wales, 2548, Australia",-36.8879193,149.9073237,Caltex,139.9,160.9
879,"79 Union Road, NORTH ALBURY NSW 2640","Union Road, North Albury, Albury, Albury City Council, New South Wales, 2640, Australia",-36.0505593,146.9177006,Caltex,136.9,157.9
880,"672 Dean St, ALBURY NSW 2640","Dean Street, Albury, Albury City Council, New South Wales, 2640, Australia",-36.0814034,146.9210257,Caltex,136.9,157.9
895,"150 Woodville Rd, MERRYLANDS NSW 2160","Woodville Road, Merrylands, Sydney, Cumberland City Council, New South Wales, 2160, Australia",-33.8397773,150.9993172,Caltex,133.9,158.9
898,"137 Kenthurst Rd, Kenthurst NSW 2156","Kenthurst Road, Kenthurst, Sydney, The Hills Shire Council, Hills District, New South Wales, 2156, Australia",-33.6824868,151.0111604,Caltex,145.9,165.9
908,"148 Bridges Rd, NEW LAMBTON NSW 2305","Bridges Road, New Lambton, Newcastle, Newcastle City Council, New South Wales, 2305, Australia",-32.9330703,151.7136075,Caltex,159.9,180.9
912,"185 Pitt Street, MERRYLANDS NSW 2160","Pitt Street, Merrylands, Sydney, Cumberland City Council, New South Wales, 2160, Australia",-33.8333744,150.9923095,Caltex,133.9,153.9
925,"52 Cardiff Road, Elermore Vale NSW 2287","Cardiff Road, Elermore Vale, Newcastle, Newcastle City Council, New South Wales, 2287, Australia",-32.9149781,151.6726306,Caltex,155.5,176.5
927,"406 Pacific Hwy, BELMONT NORTH NSW 2280","Pacific Highway, Belmont North, Belmont, Lake Macquarie City Council, New South Wales, 2280, Australia",-33.0257248,151.6620262,Caltex,Not Selling U91    ,180.9
929,"397 Pacific Highway, Belmont NSW 2280","Pacific Highway, Belmont North, Belmont, Lake Macquarie City Council, New South Wales, 2280, Australia",-33.0257248,151.6620262,Caltex,Not Selling U91    ,179.9
931,"126 Pacific Hwy, SWANSEA NSW 2281","Pacific Highway, Swansea, Lake Macquarie City Council, New South Wales, 2281, Australia",-33.098603,151.631236,Caltex,159.9,180.9
936,"924 Victoria Rd, WEST RYDE NSW 2114","Woolworths Petrol, 924, Victoria Road, West Ryde, Sydney, Council of the City of Ryde, New South Wales, 2114, Australia",-33.81080065,151.0934221,Caltex,126.5,146.5
952,"490 Cowpasture Road, Hoxton Park NSW 2171","Cowpasture Road, Hoxton Park, Sydney, Liverpool City Council, New South Wales, 2171, Australia",-33.9246314,150.8484792,Caltex,Not Selling U91    ,154.9
955,"117 Seven Hills Rd, BAULKHAM HILLS NSW 2153","Seven Hills Road, Baulkham Hills, Sydney, The Hills Shire Council, Hills District, New South Wales, 2153, Australia",-33.761702,150.9752695,Caltex,Not Selling U91    ,160.9
958,"93 Pacific Highway, Charlestown NSW 2290","Pacific Highway, Charlestown, Lake Macquarie City Council, New South Wales, 2290, Australia",-32.967753,151.6948583,Caltex,159.9,179.9
975,"159-161 MAYBE ST, BOMBALA NSW 2632","Maybe Street, Bombala, Snowy Monaro Regional Council, New South Wales, 2632, Australia",-36.9149282,149.2342346,Caltex,Not Selling U91    ,Not Selling P98
979,"116-118 Old South Head Rd, WOOLLAHRA NSW 2025","Old South Head Road, Woollahra, Sydney, Woollahra Municipal Council, Eastern Suburbs, New South Wales, 2025, Australia",-33.8900166,151.2550448,Caltex,149.9,170.9
993,"515 Young Street, Albury NSW 2640","Young Street, Albury, Albury City Council, New South Wales, 2640, Australia",-36.0855826,146.9228341,Caltex,Not Selling U91    ,Not Selling P98
994,"370 Griffith Rd, Lavington NSW 2641","Griffith Road, Lavington, Albury, Albury City Council, New South Wales, 2641, Australia",-36.0431746,146.9445123,Caltex,Not Selling U91    ,Not Selling P98
1013,"2203 Camden Valley Way, PRESTONS NSW 2170","Camden Valley Way, Prestons, Sydney, Liverpool City Council, New South Wales, 2170, Australia",-33.9564261,150.8744845,Caltex,131.9,151.9
1019,"73-87 Oxide Street, BROKEN HILL NSW 2880","Oxide Street, Broken Hill, Broken Hill City Council, New South Wales, 2880, Australia",-31.9418876,141.4550824,Caltex,Not Selling U91    ,Not Selling P98
1025,"2 Johnson Road, Tuggerah NSW 2259","Caltex, 2, Johnson Road, Tuggerah, Central Coast Council, New South Wales, 2259, Australia",-33.2942792,151.4211044,Caltex,139.9,Not Selling P98
1046,"348 Barrenjoey Road, Newport NSW 2106","Barrenjoey Road, Newport, Sydney, Northern Beaches Council, Northern Beaches, New South Wales, 2106, Australia",-33.6565111,151.3186419,Caltex,143.9,163.9
1056,"43 Macquarie Road, Cardiff NSW 2285","Macquarie Road, Cardiff, Lake Macquarie City Council, New South Wales, 2285, Australia",-32.939628,151.6579389,Caltex,159.9,179.9
1061,"656-658 THE ENTRANCE ROAD, WAMBERAL NSW 2260","The Entrance Road, Wamberal, Gosford, Central Coast Council, New South Wales, 2260, Australia",-33.4239948,151.4322115,Caltex,159.9,180.9
1062,"105 Wollombi Rd, CESSNOCK NSW 2325","Wollombi Road, Bellbird Heights, Cessnock, Cessnock City Council, New South Wales, 2325, Australia",-32.8410367,151.3390563,Caltex,159.9,180.9
1063,"155 The Entrance Rd, ERINA NSW 2250","The Entrance Road, Erina, Gosford, Central Coast Council, New South Wales, 2250, Australia",-33.4267758,151.3968387,Caltex,159.9,180.9
1066,"19 Bagnall Beach Road, SALAMANDER BAY NSW 2317","Bagnall Beach Road, Salamander Bay, Port Stephens Council, New South Wales, 2317, Australia",-32.7318358,152.1106394,Caltex,159.9,179.9
1073,"194 CAMPBELLTOWN RD, DENHAM COURT NSW 2565","Campbelltown Road, Denham Court, Sydney, Campbelltown City Council, New South Wales, 2565, Australia",-33.9927767,150.8448576,Caltex,Not Selling U91    ,Not Selling P98
1094,"60 Princes Hwy, NAROOMA NSW 2546","Puma Narooma, 60, Princes Highway, Narooma, Eurobodalla Shire Council, New South Wales, 2546, Australia",-36.2160973,150.1263532,Caltex,138.9,Not Selling P98
1104,"16 Bosworth Road, Woolgoolga NSW 2456","Bosworth Road, Woolgoolga, Coffs Harbour City Council, New South Wales, 2456, Australia",-30.1252184,153.1940863,Caltex,Not Selling U91    ,Not Selling P98
1141,"76-78 Shirley Street, Byron Bay NSW 2481","Shirley Street, Byron Bay, Byron Shire Council, New South Wales, 2481, Australia",-28.6406442,153.6070787,Caltex,145.9,166.9
1146,"100 Gipps Street, Bega NSW 2550","Gipps Street, Bega, Bega Valley Shire Council, New South Wales, 2550, Australia",-36.6769839,149.842672,Caltex,139.9,Not Selling P98
1147,"2 Perricoota Rd, Moama NSW 2731","Perricoota Road, Moama, Murray River Council, New South Wales, 2731, Australia",-36.09465595,144.7323226,Caltex,133.9,153.9
1148,"171 Sydney Road, KELSO NSW 2795","Sydney Road, Kelso, Bathurst, Bathurst Regional Council, New South Wales, 2795, Australia",-33.4187549,149.6041493,Caltex,Not Selling U91    ,155.9
1150,"77 Smith Street, Kempsey NSW 2440","Smith Street, Kempsey, Kempsey Shire Council, New South Wales, 2440, Australia",-31.0729702,152.8442456,Caltex,137.9,Not Selling P98
1151,"262 Byron Street, Inverell NSW 2360","Byron Street, Inverell, Inverell Shire Council, New South Wales, 2360, Australia",-29.7740258,151.1106888,Caltex,139.9,Not Selling P98
1153,"1 Bay Street, Port Macquarie NSW 2444","Bay Street, Port Macquarie, Port Macquarie-Hastings Council, New South Wales, 2444, Australia",-31.4290595,152.8913324,Caltex,136.9,156.9
1154,"79 Lee Street, Wellington NSW 2820","Lee Street, Wellington, Dubbo Regional Council, New South Wales, 2820, Australia",-32.546979,148.9414954,Caltex,Not Selling U91    ,158.9
1159,"272 Princes Highway, Bomaderry NSW 2541","Princes Highway, Bomaderry, Shoalhaven City Council, New South Wales, 2541, Australia",-34.8434876,150.5944414,Caltex,137.9,157.9
1160,"143 Meade Street, Glen Innes NSW 2370","Meade Street, Glen Innes, Glen Innes Severn Council, New South Wales, 2370, Australia",-29.7385871,151.7467532,Caltex,137.9,157.9
1163,"17 Forsyth Street, Wagga Wagga NSW 2650","Forsyth Street, Wagga Wagga, Wagga Wagga City Council, New South Wales, 2650, Australia",-35.1124845,147.3579129,Caltex,141.9,161.9
1164,"58 North Street, Nowra NSW 2541","Caltex, 58, North Street, Nowra, Shoalhaven City Council, New South Wales, 2541, Australia",-34.8725199,150.6013553,Caltex,139.9,159.9
1168,"115 Mann St, NAMBUCCA HEADS NSW 2448","Mann Street, Nambucca Heads, Nambucca Valley Council, New South Wales, 2448, Australia",-30.6367812,152.9846688,Caltex,Not Selling U91    ,Not Selling P98
1169,"47 Princes Highway, Fairy Meadow NSW 2519","Princes Highway, Fairy Meadow, Wollongong City Council, New South Wales, 2519, Australia",-34.3907248,150.8935312,Caltex,139.9,159.9
1173,"1609 Ocean Drive, Lake Cathie NSW 2445","Ocean Drive, Lake Cathie, Port Macquarie-Hastings Council, New South Wales, 2445, Australia",-31.5656195,152.8395224,Caltex,Not Selling U91    ,156.9
1177,"88 Murray Street, Cootamundra NSW 2590","Caltex Woolworths, 88, Murray Street, Cootamundra, Cootamundra-Gundagai Regional Council, New South Wales, 2590, Australia",-34.6364571,148.0250643,Caltex,Not Selling U91    ,156.9
1187,"2510 Silverdale Road, Wallacia NSW 2745","Silverdale Road, Wallacia, Sydney, Penrith City Council, New South Wales, 2745, Australia",-33.8651386,150.6401281,Caltex,Not Selling U91    ,153.7
1214,"125 Dora Street, Morisset NSW 2264","Dora Street, Morisset, Lake Macquarie City Council, New South Wales, 2264, Australia",-33.1128552,151.4785845,Caltex,Not Selling U91    ,Not Selling P98
1216,"1715 Yass Valley Way, Yass NSW 2582","Yass Valley Way, Yass, Yass Valley Council, New South Wales, 2582, Australia",-34.8224384,148.9066658,Caltex,Not Selling U91    ,Not Selling P98
1217,"142 Miller Street, Armidale NSW 2350","Miller Street, West Armidale, Armidale, Armidale Regional Council, New South Wales, 2350, Australia",-30.5190863,151.6467004,Caltex,Not Selling U91    ,Not Selling P98
1218,"16-18 Gill St, MOONBI NSW 2353","Gill Street, Moonbi, Tamworth Regional Council, New South Wales, 2353, Australia",-31.0222001,151.069733,Caltex,Not Selling U91    ,Not Selling P98
1219,"M1 Northbound, Wyong NSW 2259","Wyong Visitor Centre M1 Northbound, Wyong Service Centre Northbound, Alison, Central Coast Council, New South Wales, 2259, Australia",-33.2556618,151.4022763,Caltex,Not Selling U91    ,Not Selling P98
1221,"3964 Wallanbah Road, NABIAC NSW 2312","Wallanbah Road, Nabiac, Mid-Coast Council, New South Wales, 2312, Australia",-32.0988869,152.3742505,Caltex,Not Selling U91    ,Not Selling P98
1222,"21 ABBOTT ST, GUNNEDAH NSW 2380","Abbott Street, Gunnedah, Gunnedah Shire Council, New South Wales, 2380, Australia",-30.9822191,150.2532659,Caltex,Not Selling U91    ,Not Selling P98
1224,"6425 Newell Hwy, GILGANDRA NSW 2827","Caltex, 6425, Newell Highway, Gilgandra, Gilgandra Shire Council, New South Wales, 2827, Australia",-31.7255433,148.6531893,Caltex,Not Selling U91    ,Not Selling P98
1226,"1-7 Buchanan St, SOUTH MURWILLUMBAH NSW 2484","Buchanan Street, South Murwillumbah, Tweed Shire Council, New South Wales, 2484, Australia",-28.328242,153.4095128,Caltex,Not Selling U91    ,Not Selling P98
1228,"Cnr Manning River Dr & Glenthorne, Taree South NSW 2430","Manning River Drive, Glenthorne, Taree, Mid-Coast Council, New South Wales, 2430, Australia",-31.9197347,152.4610103,Caltex,Not Selling U91    ,Not Selling P98
1229,"22-36 Parkes Road, FORBES NSW 2871","Parkes Road, Forbes, Forbes Shire Council, New South Wales, 2871, Australia",-33.3793457,148.0126547,Caltex,Not Selling U91    ,Not Selling P98
1232,"99 Barrier Hwy, COBAR NSW 2835","Barrier Highway, Cobar, Cobar Shire Council, New South Wales, 2835, Australia",-31.5204267,145.5972962,Caltex,Not Selling U91    ,Not Selling P98
1233,"53 Durham Street, BATHURST NSW 2795","Durham Street, Bathurst, Bathurst Regional Council, New South Wales, 2795, Australia",-33.4159034,149.5834407,Caltex,Not Selling U91    ,Not Selling P98
1234,"M1 Southbound, Wyong NSW 2259","Wyong Visitor Centre M1 Southbound, Wyong Service Centre Southbound, Warnervale, Central Coast Council, New South Wales, 2259, Australia",-33.2540768,151.4053575,Caltex,Not Selling U91    ,Not Selling P98
1237,"4 Lancaster St, Ingleburn NSW 2565","Lancaster Street, Ingleburn, Sydney, Campbelltown City Council, New South Wales, 2565, Australia",-33.9955189,150.860702,Caltex,Not Selling U91    ,Not Selling P98
1238,"12-16 Sydney Street, MUSWELLBROOK NSW 2333","Sydney Street, Muswellbrook, Muswellbrook Shire Council, New South Wales, 2333, Australia",-32.2677826,150.8872449,Caltex,Not Selling U91    ,Not Selling P98
1239,"1-3 Penrhyn Rd, BANKSMEADOW NSW 2019","Penrhyn Road, Banksmeadow, Sydney, Bayside Council, New South Wales, 2019, Australia",-33.9620279,151.2146335,Caltex,Not Selling U91    ,Not Selling P98
1240,"24-26 Summerland Way, KYOGLE NSW 2474","Summerland Way, Wiangaree, Kyogle Council, New South Wales, 2474, Australia",-28.520133,152.9666312,Caltex,Not Selling U91    ,Not Selling P98
1242,"47 Plain St, Tamworth NSW 2340","Plain Street, Taminda, Tamworth, Tamworth Regional Council, New South Wales, 2340, Australia",-31.0860038,150.9160115,Caltex,Not Selling U91    ,Not Selling P98
1243,"51 Albury St, HOLBROOK NSW 2644","Albury Street, Holbrook, Greater Hume Shire Council, New South Wales, 2644, Australia",-35.7238578,147.3138187,Caltex,Not Selling U91    ,Not Selling P98
1244,"76 Narromine St, TRANGIE NSW 2823","Narromine Street, Trangie, Narromine Shire Council, New South Wales, 2823, Australia",-32.0293452,147.9805326,Caltex,Not Selling U91    ,Not Selling P98
1247,"Cnr Onyx St, LIGHTNING RIDGE NSW 2834","Onyx Street, Lightning Ridge, Walgett Shire Council, New South Wales, 2834, Australia",-29.4286387,147.9741577,Caltex,Not Selling U91    ,Not Selling P98
1248,"157 ORLANDO ST, COFFS HARBOUR NSW 2450","Orlando Street, Coffs Harbour, Coffs Harbour City Council, New South Wales, 2450, Australia",-30.3034878,153.1378795,Caltex,Not Selling U91    ,Not Selling P98
1249,"141 Church Street, GLOUCESTER NSW 2422","Church Street, Gloucester, Mid-Coast Council, New South Wales, 2422, Australia",-32.0109406,151.9586655,Caltex,Not Selling U91    ,Not Selling P98
1251,"22 COOPER ST, MACKSVILLE NSW 2447","22, Cooper Street, Macksville, Nambucca Valley Council, New South Wales, 2447, Australia",-30.7098161,152.9198988,Caltex,Not Selling U91    ,Not Selling P98
1253,"80-84 Campbell Street, MORUYA NSW 2537","Campbell Street, Moruya, Eurobodalla Shire Council, New South Wales, 2537, Australia",-35.9127809,150.0841278,Caltex,133.9,153.9
1254,"29 Lord St, PORT MACQUARIE NSW 2444","Lord Street, Taskers, Port Macquarie, Port Macquarie-Hastings Council, New South Wales, 2444, Australia",-31.4434028,152.9190884,Caltex,133.9,154.9
1255,"96 CENTRE ST, CASINO NSW 2470","Centre Street, Casino, Richmond Valley Council, New South Wales, 2470, Australia",-28.8765018,153.0431094,Caltex,141.9,162.9
1256,"162 Gipps Rd, Gwynneville NSW 2500","Gipps Road, Gwynneville, Wollongong City Council, New South Wales, 2500, Australia",-34.4162487,150.8837565,Caltex,135.9,156.9
1257,"100 Hastings River Dr, PORT MACQUARIE NSW 2444","Hastings River Drive, Port Macquarie, Port Macquarie-Hastings Council, New South Wales, 2444, Australia",-31.4323529,152.8914904,Caltex,Not Selling U91    ,156.9
1267,"91 Elsham Avenue, ORANGE NSW 2800","Elsham Avenue, Warrendine, Orange, Orange City Council, New South Wales, 2800, Australia",-33.304547,149.1071279,Caltex,Not Selling U91    ,Not Selling P98
1268,"28-32 Dyraaba St, Casino NSW 2470","Dyraaba Street, Casino, Richmond Valley Council, New South Wales, 2470, Australia",-28.8541552,153.0381237,Caltex,141.9,Not Selling P98
1274,"70 Court St, MANILLA NSW 2346","Court Street, Manilla, Tamworth Regional Council, New South Wales, 2346, Australia",-30.7492089,150.7226373,Caltex,141.9,Not Selling P98
1317,"399 Pacific Highway, Coffs Harbour NSW 2450","Pacific Highway, Archville, Bonville, Coffs Harbour, Coffs Harbour City Council, New South Wales, 2450, Australia",-30.3820795,153.0473463,Caltex,145.9,166.9
1318,"70- 74 Summer Street, ORANGE NSW 2800","Summer Street, Calare, Orange, Orange City Council, New South Wales, 2800, Australia",-33.2829157,149.0948987,Caltex,137.9,158.9
1320,"2 Minorca Place, TOORMINA NSW 2452","Minorca Place, Bayldon, Toormina, Coffs Harbour City Council, New South Wales, 2452, Australia",-30.3527064,153.0910511,Caltex,145.9,Not Selling P98
1321,"New England Highway, ARMIDALE NSW 2350","New England Highway, Ben Venue, Armidale, Armidale Regional Council, New South Wales, 2350, Australia",-30.4853686,151.6785699,Caltex,Not Selling U91    ,161.9
1322,"68 Goldsmith Street, GOULBURN NSW 2580","Goldsmith Street, Ifield, Goulburn, Goulburn Mulwaree Council, New South Wales, 2580, Australia",-34.7456285,149.7113803,Caltex,137.9,158.9
1323,"22 TREELANDS DR, YAMBA NSW 2464","Woolworths Petrol, 22, Treelands Drive, Crystal Waters, Yamba, Clarence Valley Council, New South Wales, 2464, Australia",-29.4270261,153.3278428,Caltex,145.9,166.9
1325,"1 Manning River Drive, CUNDLETOWN NSW 2430","Dawson River Tourist Park, 1, Manning River Drive, Cundletown, Mid-Coast Council, New South Wales, 2430, Australia",-31.8930744,152.5054981,Caltex,146.9,167.9
1326,"6-8 Queen Elizabeth Dr, ARMIDALE NSW 2350","Caltex, 6-8, Queen Elizabeth Drive, West Armidale, Armidale, Armidale Regional Council, New South Wales, 2350, Australia",-30.5034769,151.6510908,Caltex,137.9,158.9
1329,"2-4 Marsh Street, ARMIDALE NSW 2350","Caltex North Hill, 2-4, Marsh Street, North Hill, Armidale, Armidale Regional Council, New South Wales, 2350, Australia",-30.50324945,151.6727055,Caltex,Not Selling U91    ,157.9
1331,"142 Marsh St, ARMIDALE NSW 2350","Caltex, 142, Marsh Street, South Hill, Armidale, Armidale Regional Council, New South Wales, 2350, Australia",-30.5171009,151.6675847,Caltex,Not Selling U91    ,Not Selling P98
1334,"85-87 John St, COONABARABRAN NSW 2357","John Street, Coonabarabran, Warrumbungle Shire Council, New South Wales, 2357, Australia",-31.2773807,149.2788947,Caltex,Not Selling U91    ,Not Selling P98
1336,"31 Dangar St, NARRABRI NSW 2390","Dangar Street, Narrabri, Narrabri Shire Council, New South Wales, 2390, Australia",-30.3290693,149.7768532,Caltex,Not Selling U91    ,Not Selling P98
1338,"86-98 Princes Hwy, UNANDERRA NSW 2526","Princes Highway, Unanderra, Wollongong City Council, New South Wales, 2526, Australia",-34.457567,150.842317,Caltex,Not Selling U91    ,Not Selling P98
1339,"60 Windsor Parade, DUBBO NSW 2830","60, Windsor Parade, Dulhunty, Dubbo, Dubbo Regional Council, New South Wales, 2830, Australia",-32.2546377,148.6317321,Caltex,Not Selling U91    ,Not Selling P98
1340,"6 Kosciuszko rd, Jindabyne NSW 2627","Kosciuszko Road, Jindabyne, Snowy Monaro Regional Council, New South Wales, 2627, Australia",-36.4143846,148.6229247,Caltex,Not Selling U91    ,Not Selling P98
1341,"110 Lane Cove Road, RYDE NSW 2112","110, Lane Cove Road, Ryde, Sydney, Council of the City of Ryde, New South Wales, 2112, Australia",-33.80145965,151.1137483,Caltex,171.9,192.9
1343,"172-174 Princes Hwy, ALBION PARK RAIL NSW 2527","Princes Highway, Albion Park Rail, Shellharbour City Council, New South Wales, 2527, Australia",-34.5611446,150.7959638,Caltex,Not Selling U91    ,Not Selling P98
1344,"56 Docker St, WAGGA WAGGA NSW 2650","Docker Street, Turvey Park, Wagga Wagga City Council, New South Wales, 2650, Australia",-35.1218388,147.355216,Caltex,Not Selling U91    ,Not Selling P98
1345,"Gwydir Hwy, South Grafton NSW 2460","Gwydir Highway, South Grafton, Grafton, Clarence Valley Council, New South Wales, 2460, Australia",-29.6954978,152.9142071,Caltex,Not Selling U91    ,Not Selling P98
1346,"136 Woodlark St, LISMORE NSW 2480","Woodlark Street, Lismore, Lismore City Council, New South Wales, 2480, Australia",-28.8071905,153.2783332,Caltex,Not Selling U91    ,Not Selling P98
1350,"159 IMLAY ST, EDEN NSW 2551","Imlay Street, Eden, Bega Valley Shire Council, New South Wales, 2551, Australia",-37.0607909,149.9037395,Caltex,Not Selling U91    ,Not Selling P98
1352,"179 PRINCE ST, GRAFTON NSW 2460","Prince Street, Grafton, Clarence Valley Council, New South Wales, 2460, Australia",-29.6884868,152.9357214,Caltex,Not Selling U91    ,Not Selling P98
1353,"16-18 Lake St, FORSTER NSW 2428","Lake Street, Forster, Mid-Coast Council, New South Wales, 2428, Australia",-32.2032824,152.5435335,Caltex,Not Selling U91    ,Not Selling P98
1354,"342 Kanahooka Road, BROWNSVILLE NSW 2530","Kanahooka Road, Brownsville, Wollongong City Council, New South Wales, 2530, Australia",-34.4880081,150.8089102,Caltex,Not Selling U91    ,Not Selling P98
1355,"170 FITZMAURICE ST, WAGGA WAGGA NSW 2650","Fitzmaurice Street, Wagga Wagga, Wagga Wagga City Council, New South Wales, 2650, Australia",-35.0999074,147.3668488,Caltex,Not Selling U91    ,Not Selling P98
1356,"54 Alice St, MOREE NSW 2400","Alice Street, Moree, Moree Plains Shire Council, New South Wales, 2400, Australia",-29.4711796,149.8431453,Caltex,Not Selling U91    ,Not Selling P98
1357,"352-360 Clarinda Street, PARKES NSW 2870","Clarinda Street, Parkes, Parkes Shire Council, New South Wales, 2870, Australia",-33.1290637,148.1734623,Caltex,Not Selling U91    ,Not Selling P98
1358,"73 Meninya St, MOAMA NSW 2731","Meninya Street, Moama, Murray River Council, New South Wales, 2731, Australia",-36.1074989,144.751913,Caltex,145.9,166.9
1359,"129 RIVER ST, WOODBURN NSW 2472","River Street, Woodburn, Richmond Valley Council, New South Wales, 2472, Australia",-29.0681174,153.3504522,Caltex,Not Selling U91    ,Not Selling P98
1361,"5 Tweed St, BRUNSWICK HEADS NSW 2483","Tweed Street, Brunswick Heads, Byron Shire Council, New South Wales, 2483, Australia",-28.5354733,153.5420392,Caltex,Not Selling U91    ,Not Selling P98
1362,"228 Comur Street, YASS NSW 2582","Comur Street, Yass, Yass Valley Council, New South Wales, 2582, Australia",-34.8445043,148.9133521,Caltex,Not Selling U91    ,Not Selling P98
1363,"1 Suraci Place, QUEANBEYAN WEST NSW 2620","Suraci Place, Queanbeyan West, Queanbeyan, Queanbeyan-Palerang Regional Council, New South Wales, 2620, Australia",-35.3634362,149.2069407,Caltex,Not Selling U91    ,Not Selling P98
1364,"265-267 Lake Albert Rd, KOORINGAL NSW 2650","Lake Albert Road, Kooringal, Wagga Wagga City Council, New South Wales, 2650, Australia",-35.1532265,147.3741231,Caltex,Not Selling U91    ,Not Selling P98
1365,"84 MacQuoid Street, QUEANBEYAN EAST NSW 2620","Macquoid Street, Queanbeyan East, Queanbeyan, Queanbeyan-Palerang Regional Council, New South Wales, 2620, Australia",-35.3508488,149.2414233,Caltex,Not Selling U91    ,Not Selling P98
1366,"119 Bourke Street, DUBBO NSW 2830","Bourke Street, North Dubbo, Dubbo, Dubbo Regional Council, New South Wales, 2830, Australia",-32.2340644,148.6112488,Caltex,Not Selling U91    ,Not Selling P98
1367,"662 Main Rd, EDGEWORTH NSW 2285","Main Road, Edgeworth, Lake Macquarie City Council, New South Wales, 2285, Australia",-32.9261822,151.6330583,Caltex,Not Selling U91    ,Not Selling P98
1368,"114-118 Church St, MUDGEE NSW 2850","Church Street, Mudgee, Mid-Western Regional Council, New South Wales, 2850, Australia",-32.6054849,149.5858371,Caltex,Not Selling U91    ,Not Selling P98
1374,"58 Bunnaby St, TARALGA NSW 2580","Taralga Rural, 58-64, Bunnaby Street, Taralga, Upper Lachlan Shire Council, New South Wales, 2580, Australia",-34.4057558,149.8190415,Caltex,146,Not Selling P98
1396,"364-366 Eastern Valley Way, Chatswood East NSW 2067","Eastern Valley Way, Chatswood, Sydney, Willoughby City Council, Lower North Shore, New South Wales, 2067, Australia",-33.7850149,151.2007404,Caltex,Not Selling U91    ,160.9
1400,"115-115 Church Street, Gloucester NSW 2422","Church Street, Gloucester, Mid-Coast Council, New South Wales, 2422, Australia",-32.0109406,151.9586655,Caltex,139.9,159.9
1407,"99 Diadem Street, Lismore NSW 2480","Diadem Street, Lismore, Lismore City Council, New South Wales, 2480, Australia",-28.8045,153.2888774,Caltex,Not Selling U91    ,163.9
1416,"41 - 43 Third Avenue, Blacktown NSW 2148","Third Avenue, Blacktown, Sydney, Blacktown City Council, New South Wales, 2148, Australia",-33.7667574,150.9054196,Caltex,131.9,151.9
1440,"142 Bay Rd, TOOWOON BAY NSW 2261","Bay Road, Toowoon Bay, Central Coast Council, New South Wales, 2261, Australia",-33.3578124,151.497001,Caltex,144.9,Not Selling P98
1459,"16 Flinders St, Port Kembla NSW 2505","Flinders Street, Port Kembla North, Port Kembla, Wollongong City Council, New South Wales, 2505, Australia",-34.4707259,150.8926678,Caltex,Not Selling U91    ,Not Selling P98
1464,"115 Main St, MITTAGONG NSW 2575","Main Street, Mittagong, Wingecarribee Shire Council, New South Wales, 2575, Australia",-34.4492374,150.4529173,Caltex,141.9,161.9
1465,"30 Links Ave, EAST BALLINA NSW 2478","Links Avenue, East Ballina Urban Area, East Ballina, Ballina Shire Council, New South Wales, 2478, Australia",-28.8608377,153.5833392,Caltex,Not Selling U91    ,Not Selling P98
1466,"1466 Kyogle Rd, Uki NSW 2484","Pure Love of Uki, 1466, Kyogle Road, Uki, Tweed Shire Council, New South Wales, 2484, Australia",-28.4138339,153.3348016,Caltex,150,Not Selling P98
1482,"151 Hammond Ave, Wagga Wagga NSW 2650","Hammond Avenue, East Wagga Wagga, Wagga Wagga City Council, New South Wales, 2650, Australia",-35.1204284,147.379985,Caltex,141.9,159.9
1483,"131 Fernleigh Road, Wagga Wagga NSW 2650","Fernleigh Road, Mount Austin, Wagga Wagga City Council, New South Wales, 2650, Australia",-35.1307409,147.3423202,Caltex,141.9,159.9
1488,"101 Gosport St, MOREE NSW 2400","Gosport Street, Moree, Moree Plains Shire Council, New South Wales, 2400, Australia",-29.4761615,149.8472983,Caltex,139,Not Selling P98
1502,"1-5 James St, NARRABRI NSW 2390","James Street, Narrabri, Narrabri Shire Council, New South Wales, 2390, Australia",-30.3302733,149.793649,Caltex,Not Selling U91    ,Not Selling P98
1508,"Edwards St, Wagga Wagga NSW 2650","Edwards Street, Forest Hill, Wagga Wagga City Council, New South Wales, 2651, Australia",-35.1534772,147.4665259,Caltex,141.9,159.9
1515,"Hume Highway, TARCUTTA NSW 2652","Hume Highway, Tarcutta, Wagga Wagga City Council, New South Wales, 2652, Australia",-35.3220075,147.6490822,Caltex,140.9,158.9
1533,"75-77 Fitzroy Street, Grafton NSW 2460","Fitzroy Street, Grafton, Clarence Valley Council, New South Wales, 2460, Australia",-29.6917116,152.934154,Caltex,Not Selling U91    ,Not Selling P98
1534,"36 Lagoon Street, BEGA NSW 2550","Lagoon Street, Bega, Bega Valley Shire Council, New South Wales, 2550, Australia",-36.669839,149.8407092,Caltex,Not Selling U91    ,Not Selling P98
1543,"10 George St, MARULAN NSW 2579","Truck Stop, 10, George Street, Marulan, Goulburn Mulwaree Council, New South Wales, 2579, Australia",-34.7154743,149.99991,Caltex,Not Selling U91    ,Not Selling P98
1552,"65 BOWRAL RD, MITTAGONG NSW 2575","Bowral Road, Mittagong, Wingecarribee Shire Council, New South Wales, 2575, Australia",-34.4509903,150.4474642,Caltex,141.7,161.7
1557,"26 Main Street, WALLERAWANG NSW 2845","Main Street, Wallerawang, Lithgow City Council, New South Wales, 2845, Australia",-33.4039777,150.0719057,Caltex,138.9,Not Selling P98
1559,"1389 Alpine Way, Khancoban NSW 2642","Alpine Way, Bringenbrong, Khancoban, Snowy Valleys Council, New South Wales, 2642, Australia",-36.1664194,148.0625797,Caltex,148.9,168.9
1560,"42 Adelong Road, Tumut NSW 2720","Adelong Road, Tumut, Snowy Valleys Council, New South Wales, 2720, Australia",-35.2959229,148.2191193,Caltex,142.9,160.9
1561,"50 Sydney Road, Mudgee NSW 2850","Sydney Road, Burrundulla, Mudgee, Mid-Western Regional Council, New South Wales, 2850, Australia",-32.6082936,149.5997971,Caltex,143.9,Not Selling P98
1562,"609 Argyle Street, Moss Vale NSW 2577","Argyle Street, Moss Vale Mall, Moss Vale, Wingecarribee Shire Council, New South Wales, 2577, Australia",-34.5506618,150.3704116,Caltex,141.9,161.9
1574,"8 Ogilvie St, DENMAN NSW 2328","Ogilvie Street, Denman, Muswellbrook Shire Council, New South Wales, 2328, Australia",-32.3897427,150.6887538,Caltex,136.9,157.9
1587,"10 Limestone Drive, Jerrabomberra NSW 2619","Limestone Drive, Jerrabomberra, Queanbeyan, Queanbeyan-Palerang Regional Council, New South Wales, 2619, Australia",-35.3810895,149.1996598,Caltex,Not Selling U91    ,Not Selling P98
1588,"196 Crawford Street, Queanbeyan NSW 2620","Crawford Street, Queanbeyan, Queanbeyan-Palerang Regional Council, New South Wales, 2620, Australia",-35.3514495,149.2330731,Caltex,Not Selling U91    ,Not Selling P98
1597,"16 Breese Parade, Forster NSW 2428","Breese Parade, Forster, Mid-Coast Council, New South Wales, 2428, Australia",-32.2016706,152.5186938,Caltex,Not Selling U91    ,Not Selling P98
1642,"28 Morgan St, Uranquinty NSW 2652","Morgan Street, Uranquinty, Wagga Wagga City Council, New South Wales, 2652, Australia",-35.1913456,147.248507,Caltex,139.9,Not Selling P98
1646,"275-277 Princes Highway, Corrimal NSW 2518","Princes Highway, Corrimal, Wollongong City Council, New South Wales, 2518, Australia",-34.3722047,150.8970249,Caltex,131.7,151.7
1647,"95 NORTHCOTE ST, KURRI KURRI NSW 2327","Northcote Street, Kurri Kurri, Cessnock City Council, New South Wales, 2327, Australia",-32.8113299,151.4798012,Caltex,151.9,171.9
1653,"66 Tallow Street, Moulamein NSW 2733","Caltex, 66, Tallow Street, Moulamein, Murray River Council, New South Wales, 2733, Australia",-35.0890031,144.0344694,Caltex,151,Not Selling P98
1659,"136-140 Adelaide Street, BLAYNEY NSW 2799","Adelaide Street, Blayney, Blayney Shire Council, New South Wales, 2799, Australia",-33.5322957,149.2552894,Caltex,140.9,160.9
1663,"130 ALBURY ST, HOLBROOK NSW 2644","Albury Street, Holbrook, Greater Hume Shire Council, New South Wales, 2644, Australia",-35.7238578,147.3138187,Caltex,142.9,163.9
1677,"4352 New England Hwy, GUYRA NSW 2365","New England Highway, Llangothlin, Guyra, Armidale Regional Council, New South Wales, 2365, Australia",-30.139864,151.683965,Caltex,137.9,156.9
1689,"29 Banna Avenue, Griffith NSW 2680","Banna Avenue, Griffith, Griffith City Council, New South Wales, 2680, Australia",-34.2898741,146.0607768,Caltex,135.9,155.9
1706,"21 NEIL ST, MOAMA NSW 2731","Neil Street, Moama, Murray River Council, New South Wales, 2731, Australia",-36.0786993,144.7489501,Caltex,Not Selling U91    ,Not Selling P98
1720,"13 SLOANE ST, GOULBURN NSW 2580","Sloane Street, Goulburn, Goulburn Mulwaree Council, New South Wales, 2580, Australia",-34.7628965,149.7145303,Caltex,Not Selling U91    ,Not Selling P98
1722,"246 Princes Hwy, Bomaderry NSW 2541","Princes Highway, Bomaderry, Shoalhaven City Council, New South Wales, 2541, Australia",-34.8434876,150.5944414,Caltex,136.9,157.9
1725,"1 Perry Street, MENINDEE NSW 2879","Perry Street, Menindee, Central Darling Shire Council, New South Wales, 2879, Australia",-32.3903013,142.4157029,Caltex,Not Selling U91    ,Not Selling P98
1731,"254 Kelly St, Scone NSW 2337","Kelly Street, Scone, Upper Hunter Shire Council, New South Wales, 2337, Australia",-32.0334002,150.8642246,Caltex,132.9,152.9
1750,"1412-1414 Pittwater Road, North Narrabeen NSW 2101","Pittwater Road, Narrabeen, Sydney, Northern Beaches Council, Northern Beaches, New South Wales, 2101, Australia",-33.7119101,151.296933,Caltex,171.9,191.9
1752,"30-40 Alfred Rd, Chipping Norton NSW 2170","Alfred Road, Chipping Norton, Sydney, Liverpool City Council, New South Wales, 2170, Australia",-33.9234464,150.9527671,Caltex,Not Selling U91    ,Not Selling P98
1764,"39 Pangee St, NYNGAN NSW 2825","Pangee Street, Nyngan, Bogan Shire Council, New South Wales, 2825, Australia",-31.5577786,147.1864121,Caltex,138.9,156.9
1765,"17 Sandwych St, WENTWORTH NSW 2648","Sandwych Street, Wentworth, Wentworth Shire Council, New South Wales, 2648, Australia",-34.1067514,141.9202221,Caltex,Not Selling U91    ,Not Selling P98
1766,"99 Market Street, Balranald NSW 2715","Caltex, 99, Market Street, Balranald, Balranald Shire Council, New South Wales, 2715, Australia",-34.6394303,143.5634499,Caltex,Not Selling U91    ,Not Selling P98
1768,"5 Kanandah Road, Broken Hill NSW 2880","Kanandah Road, Broken Hill, Broken Hill City Council, New South Wales, 2880, Australia",-31.9884672,141.4306527,Caltex,Not Selling U91    ,Not Selling P98
1771,"84 Patton Street, Broken Hill NSW 2880","Patton Street, Broken Hill, Broken Hill City Council, New South Wales, 2880, Australia",-31.9841265,141.4554412,Caltex,146.9,167.9
1780,"429 Moama Street, Hay NSW 2711","Caltex Hay South, 429, Moama Street, Hay South, Hay Shire Council, New South Wales, 2711, Australia",-34.5201701,144.838101,Caltex,137.9,157.9
1782,"336 Hay Road, Deniliquin NSW 2710","Hay Road, Deniliquin, Edward River Council, New South Wales, 2710, Australia",-35.5227262,144.9813982,Caltex,143.9,163.9
1783,"150 Jerilderie Street, Jerilderie NSW 2716","Jerilderie Street, Jerilderie, Murrumbidgee Council, New South Wales, 2716, Australia",-35.3554896,145.7226816,Caltex,136.9,156.9
1784,"6 Murray Street, Barham NSW 2732","Murray Street, Barham, Murray River Council, New South Wales, 2732, Australia",-35.629883,144.1254504,Caltex,141.9,161.9
1791,"58 Lachlan Street, Hay NSW 2711","Lachlan Street, Hay, Hay Shire Council, New South Wales, 2711, Australia",-34.4995625,144.8452828,Caltex,140.9,Not Selling P98
1793,"188 High Street, Wauchope NSW 2446","High Street, Wauchope, Port Macquarie-Hastings Council, New South Wales, 2446, Australia",-31.4666089,152.718599,Caltex,138.9,157.9
1794,"229 High Street, Wauchope NSW 2446","High Street, Wauchope, Port Macquarie-Hastings Council, New South Wales, 2446, Australia",-31.4666089,152.718599,Caltex,Not Selling U91    ,Not Selling P98
1795,"4 High Street, Wauchope NSW 2446","High Street, Wauchope, Port Macquarie-Hastings Council, New South Wales, 2446, Australia",-31.4666089,152.718599,Caltex,138.9,157.9
1797,"New Lake Entrance Road (Shellharbour City Centre), Shellharbour NSW 2529","New Lake Entrance Road, Shellharbour City Centre, Shellharbour City Council, New South Wales, 2529, Australia",-34.5628685,150.8334587,Caltex,Not Selling U91    ,191.9
1827,"155-157 Princes Highway, Ulladulla NSW 2539","Princes Highway, Ulladulla, Shoalhaven City Council, New South Wales, 2539, Australia",-35.3492504,150.4748794,Caltex,Not Selling U91    ,Not Selling P98
1828,"62 Deering Street, ULLADULLA NSW 2539","Deering Street, Ulladulla, Shoalhaven City Council, New South Wales, 2539, Australia",-35.3616824,150.4682386,Caltex,Not Selling U91    ,Not Selling P98
1836,"15 Glastonbury Ave, UNANDERRA NSW 2526","Glastonbury Avenue, Unanderra, Wollongong City Council, New South Wales, 2526, Australia",-34.4607185,150.8545884,Caltex,139.9,161.9
1839,"1766 Horsley Drive, Horsley Park NSW 2175","The Horsley Drive, Horsley Park, Sydney, Fairfield City Council, New South Wales, 2175, Australia",-33.8459486,150.8721848,Caltex,159.9,180.9
1841,"1549 LEGGETTS DR, BRUNKERVILLE NSW 2323","Leggetts Drive, Brunkerville, Mount Vincent, Cessnock City Council, New South Wales, 2323, Australia",-32.9465284,151.479193,Caltex,Not Selling U91    ,Not Selling P98
1844,"180 Manning St, KIAMA NSW 2533","Manning Street, Kiama, The Council of the Municipality of Kiama, New South Wales, 2533, Australia",-34.6805511,150.8492704,Caltex,161.9,179.9
1847,"2 Belinda Street, Gerringong NSW 2534","Belinda Street, Gerringong, The Council of the Municipality of Kiama, New South Wales, 2534, Australia",-34.7454353,150.8154412,Caltex,157.9,175.9
1852,"331 Princes Hwy, Milton NSW 2538","Princes Highway, Milton, Shoalhaven City Council, New South Wales, 2538, Australia",-35.3106038,150.4317342,Caltex,139.9,160.9
1854,"2399 Princes Highway, BEWONG NSW 2540","Princes Highway, Bewong, Basin View, Shoalhaven City Council, New South Wales, 2540, Australia",-35.0796626,150.5495925,Caltex,138.9,159.9
1866,"110-112 Princes Hwy, UNANDERRA NSW 2526","Princes Highway, Unanderra, Wollongong City Council, New South Wales, 2526, Australia",-34.457567,150.842317,Caltex,Not Selling U91    ,155.7
1871,"83 Byamee Street, Dapto NSW 2530","Byamee Street, Lakelands, Koonawarra, Wollongong City Council, New South Wales, 2530, Australia",-34.4985705,150.802291,Caltex,167.9,187.9
1875,"29 Moama Street, Mathoura NSW 2710","Moama Street, Mathoura, Murray River Council, New South Wales, 2710, Australia",-35.8061879,144.8986593,Caltex,143.9,163.9
1882,"19 Sydney Road, KELSO NSW 2795","Sydney Road, Kelso, Bathurst, Bathurst Regional Council, New South Wales, 2795, Australia",-33.4187549,149.6041493,Caltex,131.9,149.9
1885,"54 Deniliquin Road, Tocumwal NSW 2714","Deniliquin Road, Tocumwal, Berrigan Shire Council, New South Wales, 2714, Australia",-35.8101426,145.5596824,Caltex,143.9,163.9
1899,"119 Stenhouse Dr, CAMERON PARK NSW 2285","Stenhouse Drive, Cameron Park, Lake Macquarie City Council, New South Wales, 2285, Australia",-32.8949705,151.5995001,Caltex,Not Selling U91    ,Not Selling P98
1938,"42 SPENSER ST, ILUKA NSW 2466","Spenser Street, Iluka, Clarence Valley Council, New South Wales, 2466, Australia",-29.4065783,153.3518775,Caltex,145.9,167.9
1940,"502 Goonoo Goonoo Rd, Hillvue NSW 2340","Goonoo Goonoo Road, Hillvue, Tamworth, Tamworth Regional Council, New South Wales, 2340, Australia",-31.1301704,150.9238498,Caltex,139.9,159.9
